City_ID,City,Lat,Lng,Max Temp,Humidity,Cloudiness,Wind Speed,Country,Date
0,albany,42.6001,-73.9662,12.36,93,100,0.89,US,1746363667
1,kondopoga,62.2057,34.2614,9.32,38,99,4.43,RU,1746363866
2,margaret river,-33.95,115.0667,17.85,66,99,4.67,AU,1746363868
3,slave lake,55.2834,-114.769,8.99,37,100,6.69,CA,1746363869
4,as sulayyil,20.4607,45.5779,39.8,6,100,5.09,SA,1746363870
5,yellowknife,62.456,-114.3525,-0.33,92,75,2.57,CA,1746363871
6,taoudenni,22.6783,-3.9836,38.69,13,8,3.2,ML,1746363872
7,portland,45.5234,-122.6762,5.59,91,10,0.89,US,1746363654
8,bad bentheim,52.3167,7.1667,12.51,58,100,1.79,DE,1746363875
9,neryungri,56.6709,124.6491,-4.12,93,86,3.04,RU,1746363876
10,aligudarz,33.4006,49.6949,22.41,30,81,7.21,IR,1746363878
11,chibougamau,49.9168,-74.3659,3.79,70,0,6.17,CA,1746363879
12,wailua homesteads,22.0669,-159.378,23.44,84,40,6.17,US,1746363880
13,touros,-5.1989,-35.4608,30.36,60,12,5.84,BR,1746363882
14,nuku'alofa,-21.1333,-175.2,24.19,83,75,3.6,TO,1746363638
15,carnarvon,-24.8667,113.6333,22.38,71,100,8.37,AU,1746363884
16,nikolayevsk-on-amure,53.1406,140.73,0.5,95,100,2.77,RU,1746363885
17,cromer,52.9312,1.2989,12.05,50,100,4.02,GB,1746363886
18,iqaluit,63.7506,-68.5145,-5.15,79,100,1.03,CA,1746363677
19,badger,64.8,-147.5333,-0.05,90,0,0.0,US,1746363888
20,plettenberg bay,-34.0527,23.3716,19.77,48,2,1.88,ZA,1746363889
21,susuman,62.7833,148.1667,-4.6,95,100,1.59,RU,1746363892
22,grytviken,-54.2811,-36.5092,3.76,51,0,1.37,GS,1746363893
23,port-aux-francais,-49.35,70.2167,4.21,75,100,8.04,TF,1746363638
24,ribeira grande,38.5167,-28.7,18.22,68,20,6.17,PT,1746363895
25,seka,17.9285,103.9552,31.53,57,3,2.58,TH,1746363898
26,waitangi,-43.9535,-176.5597,11.36,67,100,11.33,NZ,1746363900
27,adamstown,-25.066,-130.1015,23.78,80,67,4.84,PN,1746363901
28,petropavlovsk-kamchatsky,53.0452,158.6483,2.33,87,100,3.0,RU,1746363902
29,barcelos,41.5388,-8.6151,14.05,87,100,2.39,PT,1746363904
30,puerto ayora,-0.7393,-90.3518,24.75,97,96,1.65,EC,1746363798
31,lazaro cardenas,17.9583,-102.2,25.3,74,100,2.17,MX,1746363906
32,isafjordur,66.0755,-23.124,11.02,54,20,7.2,IS,1746363907
33,bilibino,68.0546,166.4372,-18.9,87,4,2.46,RU,1746363908
34,invercargill,-46.4,168.35,7.79,92,65,2.24,NZ,1746363909
35,bethel,41.3712,-73.414,18.05,92,100,0.45,US,1746363910
36,ciudad del carmen,18.6333,-91.8333,28.02,74,0,5.14,MX,1746363911
37,metlili chaamba,32.2667,3.6333,31.52,23,40,9.26,DZ,1746363914
38,kavieng,-2.5744,150.7967,27.85,80,91,5.28,PG,1746363915
39,rio grande,-32.035,-52.0986,20.24,77,0,3.12,BR,1746363685
40,lebu,-37.6167,-73.65,9.57,87,12,4.72,CL,1746363917
41,ushuaia,-54.8,-68.3,5.81,70,75,9.77,AR,1746363918
42,marshfield,44.6689,-90.1718,11.36,79,6,1.45,US,1746363675
43,santa terezinha,-29.9002,-50.0904,20.77,68,0,3.78,BR,1746363920
44,burbach,50.75,8.0833,11.38,72,100,3.6,DE,1746363922
45,crane,31.3974,-102.3501,14.13,52,4,7.71,US,1746363924
46,cabo san lucas,22.8909,-109.9124,18.75,60,0,6.69,MX,1746363675
47,stanley,54.868,-1.6985,9.17,64,75,8.23,GB,1746363740
48,punta arenas,-53.15,-70.9167,4.06,87,40,7.72,CL,1746363680
49,puerto natales,-51.7236,-72.4875,4.25,70,75,2.57,CL,1746363928
50,codrington,-38.2667,141.9667,18.24,40,100,8.31,AU,1746363930
51,enewetak,11.3474,162.3373,27.88,74,14,8.56,MH,1746363933
52,cidreira,-30.1811,-50.2056,20.92,68,0,3.92,BR,1746363689
53,blackmans bay,-43.0167,147.3167,15.07,65,100,3.78,AU,1746363936
54,pandan,14.0453,124.1694,27.14,85,99,2.99,PH,1746363937
55,siocon,7.7061,122.1353,27.35,83,100,1.44,PH,1746363938
56,rechytsa,52.3617,30.3916,21.31,64,84,8.13,BY,1746363939
57,pacific grove,36.6177,-121.9166,10.37,89,38,1.79,US,1746363940
58,cockburn town,21.4612,-71.1419,25.23,81,69,6.62,TC,1746363941
59,ilulissat,69.2167,-51.1,1.01,64,20,3.6,GL,1746363943
60,pitimbu,-7.4706,-34.8086,28.67,63,2,4.6,BR,1746363944
61,polyarnyy,69.1989,33.4478,1.0,97,100,13.6,RU,1746363945
62,leirvik,59.7798,5.5005,12.23,30,0,5.14,NO,1746363946
63,olonkinbyen,70.9221,-8.7187,-2.32,79,100,10.83,SJ,1746363947
64,saint-pierre,-21.3393,55.4781,27.82,69,100,3.09,RE,1746363948
65,tiksi,71.6872,128.8694,-11.0,99,100,2.02,RU,1746363949
66,aasiaat,68.7098,-52.8699,-2.14,68,99,1.51,GL,1746363783
67,sao vicente,-23.9631,-46.3919,25.0,69,75,1.03,BR,1746363935
68,sydney,-33.8679,151.2073,18.46,88,75,2.57,AU,1746363954
69,thunder bay,48.4001,-89.3168,3.99,93,20,3.09,CA,1746363192
70,kampung tanjung karang,3.4242,101.1849,27.76,86,100,3.01,MY,1746363956
71,dudinka,69.4058,86.1778,-4.71,94,21,2.5,RU,1746363957
72,kill devil hills,36.0307,-75.676,22.01,88,100,8.23,US,1746363958
73,ust-nera,64.5667,143.2,-1.97,97,100,2.38,RU,1746363959
74,klyuchi,52.2667,79.1667,20.54,26,65,6.58,RU,1746363960
75,vilyuchinsk,52.9306,158.4028,3.15,99,100,2.19,RU,1746363961
76,ruhpolding,47.7667,12.65,12.47,90,100,2.5,DE,1746363962
77,qaqortoq,60.7167,-46.0333,1.86,99,100,0.96,GL,1746363963
78,vernon,50.2581,-119.2691,8.74,61,81,1.03,CA,1746363965
79,horta,38.5333,-28.6333,17.8,77,20,6.17,PT,1746363968
80,la passe,45.5549,-0.8967,18.96,73,22,5.43,FR,1746363969
81,lindi,-10.0,39.7167,27.08,90,100,3.04,TZ,1746363970
82,tuni,17.35,82.55,29.4,75,14,4.81,IN,1746363971
83,ponta delgada,37.7333,-25.6667,18.44,88,75,4.63,PT,1746363972
84,tamanrasset,22.785,5.5228,31.95,8,0,1.54,DZ,1746363723
85,hermanus,-34.4187,19.2345,23.22,42,0,2.39,ZA,1746363974
86,qurayyat,31.3318,37.3428,28.1,15,40,8.23,SA,1746363975
87,gaspe,48.8334,-64.4819,9.12,61,75,1.54,CA,1746363719
88,vorchdorf,48.0039,13.9212,13.83,79,100,1.93,AT,1746363977
89,kralendijk,12.15,-68.2667,29.99,70,20,6.17,BQ,1746363979
90,nueva esperanza,15.2667,-87.6,25.81,85,87,0.77,HN,1746363980
91,bredasdorp,-34.5322,20.0403,23.99,23,0,0.79,ZA,1746363981
92,kone,-21.0595,164.8658,21.04,79,100,1.26,NC,1746363982
93,vilyuysk,63.7553,121.6247,-3.07,95,23,2.11,RU,1746363984
94,rongelap,11.1635,166.8941,27.42,74,8,7.89,MH,1746363985
95,gerash,27.6652,54.1371,39.08,11,92,6.9,IR,1746363986
96,pontianak,-0.0333,109.3333,28.99,84,20,1.54,ID,1746363987
97,jinka,5.65,36.65,17.24,94,100,1.14,ET,1746363988
98,college,64.8569,-147.8028,-0.01,87,20,0.0,US,1746363991
99,luganville,-15.5333,167.1667,25.65,85,67,4.25,VU,1746363992
100,les anglais,18.3054,-74.2197,25.87,70,0,1.95,HT,1746363993
101,coquimbo,-29.9533,-71.3436,15.0,84,100,0.95,CL,1746363882
102,mwinilunga,-11.7358,24.4293,23.36,69,100,3.25,ZM,1746363995
103,el calafate,-50.3408,-72.2768,2.94,77,100,0.41,AR,1746363996
104,kourou,5.1552,-52.6478,27.08,81,53,3.09,GF,1746363999
105,georgetown,5.4112,100.3354,26.96,93,40,3.6,MY,1746363636
106,nadi,-17.8,177.4167,22.49,89,14,3.24,FJ,1746364001
107,mareeba,-17.0,145.4333,21.15,92,97,3.45,AU,1746364002
108,vorgashor,67.5833,63.95,1.34,86,100,5.71,RU,1746364003
109,papatowai,-46.5619,169.4708,8.42,83,17,2.87,NZ,1746364005
110,edinburgh of the seven seas,-37.0676,-12.3116,15.87,67,17,10.29,SH,1746364006
111,jamestown,42.097,-79.2353,11.68,99,100,5.14,US,1746363924
112,staritsa,56.5075,34.9354,14.18,72,100,6.08,RU,1746364008
113,kailua-kona,19.6406,-155.9956,23.98,90,100,2.06,US,1746364009
114,gondia,21.45,80.2,30.87,30,90,3.59,IN,1746364010
115,svetlyy,54.675,20.1347,12.3,69,11,5.82,RU,1746364011
116,acapulco de juarez,16.8634,-99.8901,24.9,73,75,3.09,MX,1746364012
117,port lincoln,-34.7333,135.8667,19.98,44,0,7.36,AU,1746364013
118,hopelchen,19.7667,-89.85,25.88,80,53,2.56,MX,1746364014
119,walvis bay,-22.9575,14.5053,23.28,48,0,3.01,NA,1746364016
120,ajdabiya,30.7554,20.2263,26.76,24,0,5.9,LY,1746364017
121,hotan,37.0997,79.9269,23.11,17,89,6.25,CN,1746363722
122,sirte,31.2089,16.5887,27.97,27,5,4.75,LY,1746364019
123,anadyr,64.75,177.4833,-10.72,79,0,9.0,RU,1746364020
124,port elizabeth,-33.918,25.5701,23.51,54,7,0.45,ZA,1746364022
125,hasaki,35.7333,140.8333,15.65,66,81,9.07,JP,1746364023
126,mugia,43.1041,-9.2179,16.62,78,94,1.98,ES,1746364025
127,lapua,62.9693,23.0088,4.06,38,99,6.03,FI,1746364026
128,san luis de la loma,17.2706,-100.8939,24.6,75,10,1.86,MX,1746364027
129,belmonte,-15.8631,-38.8828,24.55,83,100,4.02,BR,1746364028
130,kodiak,57.79,-152.4072,3.73,93,100,9.77,US,1746364029
131,lompoc,34.6391,-120.4579,11.23,83,100,5.66,US,1746364032
132,bassila,9.0081,1.6654,34.33,40,91,2.55,BJ,1746364033
133,moia,41.8101,2.0958,21.14,70,98,0.45,ES,1746364034
134,turuntayevo,52.2,107.6167,5.34,35,49,2.42,RU,1746364035
135,hawaiian paradise park,19.5933,-154.9731,20.73,89,100,2.06,US,1746364036
136,west island,-12.1568,96.8225,26.99,74,40,5.66,CC,1746364037
137,hamilton,39.1834,-84.5333,10.23,94,100,2.57,US,1746363862
138,columbus,39.9612,-82.9988,11.4,97,100,2.57,US,1746363721
139,nanma,36.1817,118.1583,15.01,47,100,3.98,CN,1746364041
140,goure,13.9835,10.2704,37.38,7,100,4.31,NE,1746364042
141,whitehorse,60.7161,-135.0538,-1.57,63,20,1.54,CA,1746363911
142,remire-montjoly,4.9167,-52.2667,29.02,84,20,1.03,GF,1746364044
143,kapuskasing,49.4169,-82.4331,3.05,87,75,3.09,CA,1746363962
144,isla mujeres,21.2311,-86.731,28.03,73,87,4.71,MX,1746363866
145,st. john's,47.5649,-52.7093,9.53,96,100,3.34,CA,1746364047
146,eilenburg,51.4598,12.6334,13.53,60,100,4.51,DE,1746364048
147,corral de almaguer,39.7545,-3.1865,15.47,57,100,6.71,ES,1746364050
148,talnakh,69.4865,88.3972,-2.15,94,23,1.89,RU,1746364051
149,hami,42.8,93.45,22.0,9,0,11.15,CN,1746364052
150,beyneu,45.3167,55.2,26.45,17,100,3.58,KZ,1746364053
151,westport,41.1415,-73.3579,18.49,89,75,2.06,US,1746363784
152,novaya igirma,57.1334,103.9112,6.69,81,14,1.77,RU,1746364055
153,saint-francois,46.4154,3.9054,17.69,84,100,1.54,FR,1746364056
154,sillamae,59.3997,27.7547,8.2,60,91,3.04,EE,1746364057
155,kizhinga,51.8462,109.9097,5.83,25,10,0.15,RU,1746364060
156,castro,-24.7911,-50.0119,17.14,75,20,2.47,BR,1746364061
157,kirensk,57.7853,108.1119,3.16,91,82,1.41,RU,1746364062
158,mili,6.0815,171.735,27.77,80,94,5.82,MH,1746364063
159,howrah,22.5892,88.3103,31.0,58,40,3.6,IN,1746364064
160,terrace,54.5163,-128.6035,4.87,97,100,1.12,CA,1746364065
161,pariaman,-0.619,100.12,29.0,76,100,1.66,ID,1746364066
162,ascension,30.2169,-90.9001,19.44,83,0,0.45,US,1746364067
163,voi,-3.3945,38.563,27.95,62,100,4.47,KE,1746364069
164,avarua,-21.2078,-159.775,22.03,94,20,1.54,CK,1746364070
165,tra vinh,9.9347,106.3453,27.07,79,100,2.53,VN,1746364071
166,pasuquin,18.3328,120.6177,26.97,74,40,2.06,PH,1746364072
167,aldinga beach,-35.2793,138.4604,21.48,43,100,7.38,AU,1746364073
168,iskateley,67.6803,53.1512,1.16,100,100,2.6,RU,1746364075
169,glace bay,46.1969,-59.957,10.25,98,75,2.06,CA,1746364076
170,hadibu,12.65,54.0333,30.52,70,44,1.13,YE,1746364077
171,dhidhdhoo,6.8833,73.1,29.41,76,15,4.39,MV,1746364078
172,thompson,55.7435,-97.8558,3.09,60,20,1.54,CA,1746363914
173,summerside,46.3959,-63.7876,5.45,94,100,0.42,CA,1746364080
174,buchanan,5.8808,-10.0467,29.59,71,72,2.94,LR,1746364081
175,utrik,11.2278,169.8474,27.06,75,1,8.15,MH,1746364082
176,tazovsky,67.4667,78.7,-5.72,87,5,3.63,RU,1746364083
177,nanning,22.8167,108.3167,28.54,79,1,5.77,CN,1746364085
178,hun,29.1268,15.9477,31.97,9,0,1.24,LY,1746364087
179,tindouf,27.6711,-8.1474,29.83,11,52,9.16,DZ,1746364088
180,praia da vitoria,38.7333,-27.0667,16.35,76,100,4.08,PT,1746364089
181,taoru,28.2167,76.95,36.72,20,42,0.97,IN,1746364090
182,kita,13.0349,-9.4895,35.72,34,99,0.82,ML,1746364091
183,udachny,66.4167,112.4,-0.87,86,100,2.8,RU,1746364092
184,aykhal,66.0,111.5,-2.83,93,100,3.26,RU,1746364093
185,hegang,47.4,130.3667,5.92,78,95,1.98,CN,1746364095
186,el carmen,8.5106,-73.4478,23.93,70,82,0.32,CO,1746364096
187,san salvador de jujuy,-24.1946,-65.2971,16.74,65,5,0.87,AR,1746364097
188,saipan,15.1355,145.701,28.39,79,40,4.12,MP,1746364098
189,lebanon,36.2081,-86.2911,11.58,92,100,5.14,US,1746363815
190,ouesso,1.6136,16.0517,35.72,34,9,0.99,CG,1746364100
191,longyearbyen,78.2186,15.6401,-5.09,63,20,3.09,SJ,1746364101
192,toamasina,-18.1667,49.3833,27.39,67,19,2.54,MG,1746364102
193,bougouni,11.417,-7.479,33.81,37,100,1.72,ML,1746364103
194,port mathurin,-19.6833,63.4167,27.17,78,9,3.04,MU,1746364105
195,necochea,-38.5473,-58.7368,18.14,69,100,4.84,AR,1746364106
196,east london,-33.0153,27.9116,21.27,54,0,6.33,ZA,1746364107
197,kish,26.5578,54.0194,33.15,49,0,6.17,IR,1746364108
198,mount gambier,-37.8333,140.7667,18.2,42,100,5.25,AU,1746364109
199,galliano,29.4422,-90.2992,21.0,68,0,2.06,US,1746364110
200,frontera,26.9333,-101.45,20.18,74,98,0.89,MX,1746364111
201,mirpur sakro,24.5474,67.6277,30.61,62,0,10.15,PK,1746364112
202,basco,20.4487,121.9702,28.22,84,68,6.77,PH,1746364113
203,akureyri,65.6835,-18.0878,12.64,55,100,3.96,IS,1746364115
204,gadzhiyevo,69.2551,33.3362,0.96,97,100,13.95,RU,1746364116
205,new plymouth,-39.0667,174.0833,9.94,83,0,4.3,NZ,1746364117
206,viru,-8.4167,-78.75,21.22,76,98,1.55,PE,1746364118
207,zambezi,-13.5432,23.1047,28.12,46,57,3.96,ZM,1746364119
208,sitka,57.0531,-135.33,4.94,81,40,3.09,US,1746364120
209,chonchi,-42.6128,-73.8092,4.51,92,99,1.19,CL,1746364121
210,san patricio,28.017,-97.5169,20.97,73,0,4.32,US,1746364122
211,itupiranga,-5.1347,-49.3267,29.4,68,0,1.57,BR,1746364124
212,arraial do cabo,-22.9661,-42.0278,24.92,73,40,3.09,BR,1746364126
213,murzuq,25.9155,13.9184,31.8,8,0,3.66,LY,1746364127
214,nova sintra,14.8667,-24.7167,22.15,87,4,9.44,CV,1746364128
215,cartagena,10.3997,-75.5144,27.79,83,40,4.92,CO,1746364002
216,puerto baquerizo moreno,-0.9,-89.6,23.62,84,89,1.83,EC,1746364130
217,las varillas,-31.8721,-62.7195,21.53,72,100,4.08,AR,1746364131
218,castillos,-34.1667,-53.8333,19.35,71,0,3.01,UY,1746364133
219,kavaratti,10.5669,72.642,29.76,70,11,5.11,IN,1746364134
220,miracema do tocantins,-9.5618,-48.3967,29.33,58,55,3.01,BR,1746364135
221,lerwick,60.1545,-1.1494,7.76,59,80,8.13,GB,1746364136
222,vila do maio,15.1333,-23.2167,22.31,81,2,6.0,CV,1746364137
223,takoradi,4.8845,-1.7554,31.15,66,68,3.55,GH,1746364138
224,barra de santo antonio,-9.4047,-35.5072,26.64,80,63,2.44,BR,1746364139
225,wellesbourne,52.1948,-1.5911,13.01,53,99,5.89,GB,1746364140
226,usevia,-7.1,31.2333,23.15,78,100,1.41,TZ,1746364141
227,rosales,15.8944,120.6328,28.47,85,100,2.26,PH,1746364142
228,tura,25.5198,90.2201,25.52,60,14,1.27,IN,1746364143
229,situbondo,-7.7062,114.0098,27.8,91,7,1.51,ID,1746364053
230,hailun,47.45,126.9333,7.47,44,7,3.41,CN,1746363903
231,aquin,18.2833,-73.4,26.32,74,0,1.69,HT,1746364147
232,ancud,-41.8697,-73.8203,8.31,84,82,2.3,CL,1746364148
233,natal,-5.795,-35.2094,30.12,62,40,5.66,BR,1746363644
234,bang saphan,11.2126,99.5117,25.59,94,100,1.33,TH,1746364142
235,shchyolkino,45.4291,35.8223,16.34,73,100,1.91,UA,1746364151
236,andovoranto,-18.95,49.1,27.35,69,6,2.12,MG,1746364152
237,afaahiti,-17.75,-149.2833,25.3,74,27,1.56,PF,1746364153
238,sola,-13.8833,167.55,27.77,77,86,10.79,VU,1746364155
239,uturoa,-16.7333,-151.4333,26.54,71,0,0.62,PF,1746364156
240,kapa'a,22.0752,-159.319,24.18,84,40,6.17,US,1746364157
241,talodi,10.6325,30.3797,38.27,6,100,4.37,SD,1746364158
242,katabu,-4.9333,122.5167,24.11,95,100,1.76,ID,1746364159
243,barah,13.7,30.3667,35.76,7,97,6.24,SD,1746364160
244,dunedin,-45.8742,170.5036,7.11,95,100,0.89,NZ,1746364162
245,nar'yan-mar,67.6713,53.087,1.11,100,100,2.63,RU,1746364163
246,margate,51.3813,1.3862,12.05,67,99,0.89,GB,1746364164
247,maragogi,-9.0122,-35.2225,28.75,66,89,4.31,BR,1746364165
248,tarawa,1.419,172.984,28.05,89,75,3.09,KI,1746363638
249,turpan,42.9333,89.1667,27.66,11,8,3.54,CN,1746364167
250,horsham,51.064,-0.3272,14.93,48,20,6.17,GB,1746364168
251,nieves,15.3274,120.9485,27.75,80,100,0.93,PH,1746364170
252,tsiombe,-25.3,45.4833,21.68,67,100,5.23,MG,1746364171
253,bam,29.106,58.357,34.76,7,0,7.8,IR,1746364172
254,eyl,7.9803,49.8164,30.13,64,98,6.41,SO,1746364175
255,fale old settlement,-9.3852,-171.2468,28.52,71,84,1.98,TK,1746364176
256,egilsstadir,65.2653,-14.3948,16.26,44,67,3.22,IS,1746364177
257,thurso,58.5927,-3.5259,9.14,60,91,6.76,GB,1746364178
258,yambio,4.5721,28.3955,31.86,43,77,0.95,SS,1746364179
259,port alfred,-33.5906,26.891,21.77,68,67,3.13,ZA,1746364182
260,ishikawa,26.4233,127.8214,23.35,88,75,3.09,JP,1746364183
261,bijar,35.8668,47.6051,17.5,51,100,4.13,IR,1746364184
262,mildura,-34.2,142.15,16.15,66,100,5.16,AU,1746364185
263,shimoda,34.6667,138.95,13.96,71,7,4.08,JP,1746364186
264,fort bragg,35.139,-79.006,17.91,90,100,3.09,US,1746364187
265,split,43.5089,16.4392,25.06,41,0,3.09,HR,1746364188
266,masterton,-40.9597,175.6575,4.16,91,0,0.39,NZ,1746364171
267,bandar lampung,-5.4254,105.258,25.78,92,100,1.72,ID,1746364190
268,coari,-4.085,-63.1414,25.97,91,31,1.09,BR,1746363958
269,constantia,44.1833,28.65,21.5,60,6,8.84,RO,1746364192
270,badulla,6.9895,81.0557,23.7,86,100,1.46,LK,1746364194
271,vila franca do campo,37.7167,-25.4333,18.27,99,100,3.91,PT,1746364195
272,antonio enes,-16.2325,39.9086,25.14,86,99,6.75,MZ,1746364196
273,lionel town,17.8101,-77.2406,27.92,80,3,2.8,JM,1746364197
274,troitskoye,52.9821,84.6757,10.86,45,100,3.1,RU,1746364198
275,nemuro,43.3236,145.575,5.01,96,100,3.84,JP,1746364199
276,saint-philippe,-21.3585,55.7679,26.18,81,44,3.07,RE,1746364200
277,bom jesus,-9.0744,-44.3586,30.69,47,54,3.96,BR,1746364201
278,khandyga,62.6667,135.6,2.17,80,100,2.21,RU,1746364202
279,markovo,57.3206,107.0881,2.55,93,51,1.19,RU,1746364204
280,manggar,-2.8833,108.2667,28.04,73,71,2.49,ID,1746364205
281,sao tome,0.3365,6.7273,28.15,76,69,2.6,ST,1746364206
282,kurumkan,54.3,110.3,6.21,46,3,2.59,RU,1746364207
283,berdigestyakh,62.0989,126.6992,0.42,89,100,3.3,RU,1746364208
284,luna,10.9667,123.2333,27.05,83,81,3.95,PH,1746364209
285,marat,25.0701,45.4615,39.5,10,10,5.16,SA,1746364132
286,pangody,65.85,74.4859,-1.04,86,17,7.96,RU,1746364211
287,big bend,-26.8167,31.9333,24.19,41,28,1.06,SZ,1746364212
288,damghan,36.1683,54.348,30.99,19,91,3.66,IR,1746364213
289,sur,22.5667,59.5289,35.37,37,0,2.61,OM,1746364215
290,lhasa,29.65,91.1,13.66,33,91,3.63,CN,1746364216
291,ak'ordat,15.5486,37.8867,36.46,21,100,6.35,ER,1746364217
292,port saint john's,-31.6229,29.5448,20.94,61,0,5.36,ZA,1746364218
293,diamondhead,30.3946,-89.3639,16.57,87,0,2.53,US,1746363979
294,sona,45.4388,10.8255,25.47,53,20,3.09,IT,1746364220
295,ola,59.5833,151.2833,-0.28,74,100,11.81,RU,1746364221
296,paoua,7.2427,16.4406,37.04,24,92,2.28,CF,1746364224
297,bardai,11.65,7.2333,36.11,12,43,1.87,NG,1746364225
298,salekhard,66.53,66.6019,0.55,98,100,7.96,RU,1746364226
299,puerto colombia,10.9878,-74.9547,27.05,77,94,3.55,CO,1746364227
300,priozersk,61.0393,30.1291,8.94,61,96,3.14,RU,1746364228
301,abancay,-13.6339,-72.8814,15.07,81,100,0.81,PE,1746364231
302,weatherford,32.7593,-97.7972,15.42,77,0,0.45,US,1746364080
303,buckeye,33.3703,-112.5838,20.85,35,0,2.57,US,1746364233
304,luza,60.6308,47.2512,11.78,56,82,4.52,RU,1746364234
305,tabou,4.423,-7.3528,29.15,73,100,3.16,CI,1746364235
306,el granada,37.5027,-122.4694,9.88,90,100,6.69,US,1746364236
307,boa esperanca,-21.09,-45.5658,20.86,63,100,1.98,BR,1746364238
308,yuzhno-kurilsk,44.0306,145.8556,4.55,98,100,0.56,RU,1746364239
309,wareham,50.6889,-2.1104,14.96,55,84,3.58,GB,1746364241
310,san gabriel,34.0961,-118.1058,13.58,89,100,1.35,US,1746364055
311,mahenge,-8.6833,36.7167,22.06,83,97,1.47,TZ,1746364243
312,minas de marcona,-15.2119,-75.1103,15.44,75,100,3.19,PE,1746364244
313,malhargarh,24.2833,74.9833,27.1,50,100,8.92,IN,1746364245
314,queenstown,-31.8976,26.8753,20.25,24,59,5.59,ZA,1746364246
315,mount pearl,47.5166,-52.7813,9.07,95,100,2.93,CA,1746364247
316,belebey,54.1167,54.1167,12.51,67,100,6.94,RU,1746364248
317,myeik,12.4333,98.6,28.32,78,100,1.77,MM,1746364249
318,kerikeri,-35.2268,173.9474,9.39,92,5,1.62,NZ,1746364250
319,bamboo flat,11.7,92.7167,27.05,94,75,1.03,IN,1746364252
320,keflavik,64.0049,-22.5624,11.24,71,75,7.2,IS,1746364253
321,ciudad bolivar,8.1222,-63.5497,25.43,85,100,2.89,VE,1746364254
322,guiuan,11.0333,125.7247,28.57,79,100,3.84,PH,1746364255
323,christchurch,-43.5333,172.6333,8.91,100,79,1.03,NZ,1746364256
324,dongola,19.1667,30.4833,32.0,9,0,6.61,SD,1746364257
325,holualoa,19.6228,-155.9522,21.91,91,100,2.06,US,1746364258
326,usinsk,65.9939,57.5281,1.52,99,100,4.72,RU,1746364259
327,atafu village,-8.5421,-172.5159,28.6,71,13,2.23,TK,1746364260
328,gaalkacyo,6.7697,47.4308,31.54,44,100,5.6,SO,1746364262
329,sao gabriel da cachoeira,-0.1303,-67.0892,24.89,94,40,1.03,BR,1746363997
330,nyala,12.05,24.8833,36.09,8,84,5.93,SD,1746364264
331,chernyshevskiy,63.0128,112.4714,-1.0,98,100,0.88,RU,1746364265
332,fiambala,-27.6871,-67.6149,21.39,18,0,0.42,AR,1746364182
333,boa vista,2.8197,-60.6733,25.99,89,75,2.06,BR,1746364206
334,haiku-pauwela,20.9219,-156.3051,22.01,75,20,5.81,US,1746364269
335,jalqani,12.4486,34.2186,39.35,9,99,4.92,SD,1746364271
336,khonsa,27.0167,95.5667,20.44,91,12,2.37,IN,1746364272
337,kratovo,42.0792,22.1814,21.91,37,100,2.67,MK,1746364273
338,nuuk,64.1835,-51.7216,0.34,100,100,1.54,GL,1746364274
339,waingapu,-9.6567,120.2641,26.67,83,100,4.02,ID,1746364275
340,carutapera,-1.195,-46.02,28.84,73,0,3.06,BR,1746364276
341,pizarro,4.9533,-77.366,26.25,86,98,0.73,CO,1746364278
342,tazacorte,28.629,-17.9293,20.54,80,75,3.58,ES,1746364279
343,khawr fakkan,25.3313,56.342,34.03,18,100,11.54,AE,1746364280
344,forster,-32.1667,152.5167,18.79,78,82,3.45,AU,1746364281
345,usogorsk,63.4106,48.6872,2.73,100,100,1.36,RU,1746364282
346,flin flon,54.7682,-101.865,10.69,65,0,4.53,CA,1746364285
347,morehead city,34.7229,-76.726,19.45,92,100,2.68,US,1746364167
348,kalach,50.4258,41.0261,21.72,37,9,7.08,RU,1746364287
349,turabah,21.2141,41.6331,33.14,25,0,10.51,SA,1746364288
350,glendive,47.1053,-104.7125,11.61,62,0,1.68,US,1746364289
351,moyale,3.5167,39.0584,24.85,63,78,4.47,KE,1746364290
352,canon city,38.441,-105.2424,10.21,47,53,0.45,US,1746364291
353,balykshi,47.0667,51.8667,23.0,25,0,5.0,KZ,1746364294
354,gandajika,-6.75,23.95,24.91,69,85,3.33,CD,1746364295
355,koudougou,12.25,-2.3667,37.32,27,77,3.1,BF,1746364296
356,coracora,-15.0333,-73.7833,13.12,63,100,1.12,PE,1746364297
357,la gi,10.6667,107.7833,27.57,81,100,2.23,VN,1746364298
358,kotar,24.7167,80.9833,36.21,17,100,1.63,IN,1746364299
359,corumba,-19.0092,-57.6533,25.95,78,3,1.54,BR,1746364300
360,vakarai,55.6035,23.8213,8.03,88,100,3.17,LT,1746364301
361,chania,35.5122,24.0156,25.78,53,20,7.72,GR,1746364303
362,namibe,-15.1961,12.1522,24.42,64,2,3.72,AO,1746364304
363,parabel',58.6978,81.4825,7.89,51,100,5.72,RU,1746364305
364,vadso,70.0744,29.7487,1.09,69,0,8.23,NO,1746364306
365,alice springs,-23.7,133.8833,14.75,55,5,2.06,AU,1746364307
366,umm kaddadah,13.6017,26.6876,34.96,7,100,6.15,SD,1746364308
367,margarita belen,-27.2616,-58.9722,25.59,75,0,3.65,AR,1746364309
368,ardakan,32.31,54.0175,37.08,9,100,1.52,IR,1746364310
369,kewanee,41.2456,-89.9248,7.93,83,100,3.84,US,1746364069
370,brookings,44.3114,-96.7984,12.29,67,0,2.06,US,1746364312
371,saldanha,-33.0117,17.9442,20.73,34,0,1.62,ZA,1746364313
372,myrtle beach,33.6891,-78.8867,19.03,90,100,2.57,US,1746364315
373,tokmok,42.8417,75.3016,25.2,36,1,2.77,KG,1746364316
374,padangsidempuan,1.3667,99.2667,22.75,96,100,1.24,ID,1746364317
375,jiwani,25.05,61.7417,30.41,68,0,8.18,PK,1746364318
376,faya-largeau,17.9257,19.1043,34.82,5,5,9.03,TD,1746364319
377,alotau,-10.3069,150.4462,25.38,92,86,0.95,PG,1746364320
378,marsa alam,25.0757,34.8918,27.27,37,0,5.22,EG,1746364309
379,punta gorda,26.9298,-82.0454,23.99,94,100,0.0,US,1746364140
380,forbes,-33.3833,148.0167,14.35,66,100,2.45,AU,1746364323
381,bhimunipatnam,17.8833,83.4333,27.73,75,3,6.55,IN,1746364324
382,ta`u,-14.2336,-169.5144,27.44,78,47,5.1,AS,1746364328
383,rawson,-43.3002,-65.1023,7.16,87,0,4.63,AR,1746364330
384,new norfolk,-42.7826,147.0587,11.96,68,100,1.84,AU,1746364331
385,mejit,10.2753,170.8646,26.9,75,95,7.62,MH,1746364332
386,ust'-barguzin,53.45,108.9833,2.53,57,9,1.69,RU,1746364333
387,chalus,36.655,51.4204,16.7,88,100,2.06,IR,1746364334
388,tofol,5.3248,163.0078,27.84,79,100,6.73,FM,1746364335
389,tralee,52.2704,-9.7026,14.14,51,40,3.6,IE,1746364337
390,sanya,18.2431,109.505,27.0,89,95,1.67,CN,1746364338
391,kaedi,16.1465,-13.5047,40.35,16,2,5.73,MR,1746364339
392,luderitz,-26.6481,15.1594,25.44,33,0,2.17,NA,1746364340
393,valparaiso,-33.0393,-71.6273,16.11,55,100,3.69,CL,1746364167
394,sandnessjoen,66.0217,12.6316,5.23,60,75,2.06,NO,1746364342
395,port moresby,-9.4431,147.1797,26.18,88,42,1.12,PG,1746364287
396,saudarkrokur,65.7461,-19.6394,10.56,63,100,6.91,IS,1746364344
397,magadan,59.5667,150.8,-0.86,78,100,11.12,RU,1746364345
398,la'ie,21.6477,-157.9253,23.98,80,32,4.02,US,1746364347
399,anton lizardo,19.05,-95.9833,25.68,74,21,3.0,MX,1746364349
400,callao,-12.0667,-77.15,20.95,88,75,2.57,PE,1746364239
401,kachug,53.9606,105.8817,9.46,43,97,2.39,RU,1746364351
402,bengkulu,-3.8004,102.2655,26.38,80,59,0.52,ID,1746364293
403,waitara,-38.925,174.25,8.33,72,0,5.28,NZ,1746364355
404,fort mcmurray,56.7268,-111.381,8.73,93,100,5.66,CA,1746364356
405,vila velha,-20.3297,-40.2925,22.97,83,75,2.57,BR,1746364066
406,vorkuta,67.5,64.0,1.4,88,100,4.19,RU,1746364358
407,arawa,-6.2132,155.5367,25.7,92,95,1.19,PG,1746364359
408,sechura,-5.5569,-80.8222,21.4,75,100,3.75,PE,1746364360
409,san jose del guaviare,2.5729,-72.6459,22.19,91,83,0.53,CO,1746364127
410,kittila,67.6647,24.8936,1.45,51,75,11.32,FI,1746364362
411,hot springs village,34.6655,-93.01,10.72,82,0,1.46,US,1746364363
412,drayton valley,53.2168,-114.9854,4.68,77,100,5.83,CA,1746364129
413,potosi,-19.5836,-65.7531,9.3,62,78,2.21,BO,1746364365
414,kununurra,-15.7667,128.7333,23.99,83,98,0.0,AU,1746364367
415,long beach,33.767,-118.1892,14.49,86,100,2.57,US,1746364129
416,huitel,20.1639,-99.2733,16.63,85,100,0.27,MX,1746364369
417,novouzensk,50.4592,48.1431,21.73,29,5,6.79,RU,1746364370
418,fortuna,40.5982,-124.1573,5.52,96,0,4.12,US,1746364371
419,touggourt,33.1053,6.058,32.69,23,100,5.05,DZ,1746364372
420,port blair,11.6667,92.75,27.02,94,75,1.03,IN,1746364373
421,revda,56.801,59.9303,10.58,70,100,5.13,RU,1746364374
422,ust-tsilma,65.441,52.1498,2.08,100,100,1.5,RU,1746364375
423,hithadhoo,-0.6,73.0833,29.17,71,98,2.31,MV,1746364376
424,weligama,5.9667,80.4167,28.11,82,1,3.1,LK,1746364378
425,oriximina,-1.7656,-55.8661,28.93,67,5,2.2,BR,1746364379
426,ribeira brava,32.65,-17.0667,18.89,89,100,0.45,PT,1746364380
427,lake charles,30.2131,-93.2044,17.79,74,0,2.06,US,1746364381
428,riva del garda,45.8858,10.8412,21.56,69,100,4.6,IT,1746364382
429,dogondoutchi,13.6393,4.0287,39.54,6,100,2.54,NE,1746364383
430,chita,52.0333,113.55,0.94,32,6,3.0,RU,1746364384
431,klaksvik,62.2266,-6.589,6.14,69,82,2.47,FO,1746364385
432,mountain home,43.133,-115.6912,7.71,79,100,6.17,US,1746364387
433,longgang,37.6508,120.3286,14.77,47,100,6.43,CN,1746364388
434,golyshmanovo,56.3979,68.3728,10.71,60,100,4.54,RU,1746364389
435,urengoy,65.9667,78.3667,-1.01,86,6,5.1,RU,1746364390
436,bathurst,-33.4166,149.5806,10.23,91,100,1.34,AU,1746364177
437,geraldton,-28.7667,114.6,15.23,77,0,1.54,AU,1746364392
438,cusseta,32.3054,-84.7727,14.56,99,0,1.93,US,1746364393
439,puerto maldonado,-12.6,-69.1833,20.98,100,100,0.49,PE,1746364395
440,langarud,37.197,50.1535,19.41,81,100,1.53,IR,1746364397
441,muroto-misakicho,33.2833,134.15,17.65,78,0,3.8,JP,1746364398
442,acarau,-2.8856,-40.12,27.53,78,19,5.98,BR,1746364399
443,alofi,-19.0595,-169.9187,19.94,94,17,1.03,NU,1746364400
444,ugoofaaru,5.6667,73.0,29.25,74,93,5.01,MV,1746364401
445,kayangel,8.0823,134.7173,27.92,81,100,8.03,PW,1746364402
446,qoryooley,1.7878,44.53,31.2,54,100,6.4,SO,1746364403
447,kimbe,-5.5502,150.1429,25.46,92,99,1.44,PG,1746364404
448,barth,54.3635,12.7249,11.2,76,76,8.97,DE,1746364405
449,'ain el hadjar,34.7585,0.1453,21.85,38,65,3.65,DZ,1746364408
450,bonthe,7.5264,-12.505,32.09,58,99,2.04,SL,1746364409
451,weno,7.4515,151.8468,27.97,78,40,2.06,FM,1746364410
452,baixa grande,-11.9597,-40.1681,23.9,69,96,3.9,BR,1746364411
453,tolanaro,-25.0319,46.9987,21.65,85,100,5.09,MG,1746364412
454,bulgan,48.8125,103.5347,8.03,26,100,7.53,MN,1746364413
455,happy valley-goose bay,53.3168,-60.3315,5.29,67,79,3.7,CA,1746364415
456,kuytun,54.3419,101.5036,6.66,62,100,6.71,RU,1746364417
457,mananjary,-21.2167,48.3333,25.47,87,87,4.07,MG,1746364418
458,quellon,-43.1167,-73.6167,7.01,87,100,3.45,CL,1746364133
459,oyama,36.3,139.8,15.41,59,0,1.2,JP,1746364420
460,praya,14.9215,-23.5087,31.3,35,20,4.63,CV,1746364421
461,lakki,32.6079,70.9114,31.79,29,1,7.13,PK,1746364422
462,slawno,54.3628,16.6789,11.35,79,100,9.83,PL,1746364423
463,alamos,27.0167,-108.9333,17.88,37,0,2.04,MX,1746364424
464,la huacana,18.9667,-101.8167,21.35,86,21,0.65,MX,1746364425
465,merizo village,13.2658,144.6691,27.77,83,96,6.29,GU,1746364428
466,karatuzskoye,53.6072,92.8667,4.81,56,13,2.02,RU,1746364429
467,prado,-17.3411,-39.2208,27.0,59,0,3.62,BR,1746364430
468,scarborough,54.2797,-0.4044,9.4,66,90,3.13,GB,1746364431
469,oropesa del mar,40.1,0.15,21.78,50,0,5.72,ES,1746364433
470,nadym,65.5333,72.5167,0.39,83,100,9.98,RU,1746364434
471,la reforma,25.0833,-108.05,20.25,44,0,0.67,MX,1746364436
472,nizhneudinsk,54.9076,99.0276,4.07,80,100,1.97,RU,1746364437
473,ukiah,39.1502,-123.2078,5.76,91,59,1.97,US,1746364263
474,ulladulla,-35.35,150.4667,12.92,87,100,2.52,AU,1746364439
475,khark,29.2614,50.3306,43.01,7,0,2.06,IR,1746364440
476,gobabis,-22.45,18.9667,23.94,24,0,3.28,NA,1746364441
477,coahuayana de hidalgo,18.7,-103.6583,24.33,81,100,0.48,MX,1746364442
478,sodra sandby,56.5667,16.6167,5.5,90,100,11.51,SE,1746364443
479,san pedro pochutla,15.7333,-96.4667,25.4,77,6,1.56,MX,1746364444
480,grand haven,43.0631,-86.2284,10.04,69,75,5.66,US,1746364445
481,songea,-10.6833,35.65,20.62,88,78,3.01,TZ,1746364447
482,vylkove,45.4021,29.586,21.38,48,16,7.89,UA,1746364448
483,kuanda,56.3161,116.0806,0.67,75,11,1.57,RU,1746364449
484,sao joao do piaui,-8.3581,-42.2467,29.52,53,96,4.71,BR,1746364450
485,estevan,49.1334,-102.9842,12.34,59,0,4.14,CA,1746364451
486,karaton,-6.3424,106.1045,27.99,83,66,0.59,ID,1746364452
487,peace river,56.2501,-117.286,8.7,46,100,3.46,CA,1746364455
488,porto novo,6.4965,2.6036,32.13,59,73,4.91,BJ,1746364457
489,licata,37.1071,13.9461,23.87,42,100,1.99,IT,1746364458
490,zheleznodorozhnyy,55.7503,38.0042,15.75,46,100,4.17,RU,1746364459
491,kumeny,58.1089,49.9161,14.75,45,74,4.57,RU,1746364461
492,pak phanang,8.3511,100.202,26.23,90,100,1.93,TH,1746364462
493,tuburan,6.6439,122.2736,27.46,84,94,1.68,PH,1746364463
494,ratnagiri,16.9833,73.3,29.3,66,0,6.02,IN,1746364464
495,nagqu,31.5,92.0,7.79,19,98,7.38,CN,1746364465
496,farafangana,-22.8167,47.8333,23.93,87,95,7.55,MG,1746364466
497,smithers,54.7804,-127.1743,0.72,92,12,1.53,CA,1746364468
498,tokar,18.4254,37.729,31.63,32,0,7.14,SD,1746364469
499,tanjung selor,2.8372,117.3642,26.85,94,49,0.43,ID,1746364470
500,tamandare,-8.7597,-35.1047,28.88,63,61,4.15,BR,1746364471
501,manadhoo,5.7667,73.3833,29.49,75,48,4.76,MV,1746364472
502,qarazhal,48.0078,70.7903,26.13,17,100,7.08,KZ,1746364473
503,colonia,50.9333,6.95,14.41,62,40,3.09,DE,1746364474
504,qui nhon,13.7667,109.2333,26.65,89,100,3.74,VN,1746364475
505,karlshamn,56.1706,14.8619,6.27,84,100,6.49,SE,1746364476
506,karratha,-20.7377,116.8463,28.01,40,100,1.57,AU,1746364478
507,caconda,-13.7333,15.0667,26.01,41,77,2.32,AO,1746364479
508,dul'durga,50.6761,113.5931,5.35,25,0,1.36,RU,1746364480
509,yarmouth,41.7057,-70.2286,17.32,86,0,3.09,US,1746364481
510,north bend,43.4065,-124.2243,4.53,100,0,1.54,US,1746364482
511,luocheng,29.3848,104.0286,24.8,71,100,2.87,CN,1746364483
512,l'alcora,40.0667,-0.2,26.23,20,0,4.18,ES,1746364484
513,severo-yeniseyskiy,60.3725,93.0408,2.86,96,97,1.15,RU,1746364485
514,vanimo,-2.6741,141.3028,26.56,88,78,1.79,PG,1746364487
515,tabas,33.5959,56.9244,37.73,6,0,3.54,IR,1746364488
516,roma,43.2128,-75.4557,12.08,97,100,0.89,US,1746364288
517,mana,5.6592,-53.7767,28.23,71,14,4.16,GF,1746364490
518,shitanjing,39.2342,106.3439,11.39,19,29,5.28,CN,1746364491
519,al ghayzah,16.2079,52.176,30.73,69,0,8.44,YE,1746364492
520,kudahuvadhoo,2.6708,72.8944,29.21,72,76,3.64,MV,1746364493
521,kruisfontein,-34.0033,24.7314,23.48,25,4,2.76,ZA,1746364495
522,xichang,27.8964,102.2634,20.92,65,100,2.77,CN,1746364496
523,yaren,-0.5472,166.916,27.89,79,22,4.68,NR,1746364497
524,kansipati,6.0011,121.2344,27.38,83,18,1.0,PH,1746364498
525,biloela,-24.4167,150.5,16.15,87,5,4.01,AU,1746364499
526,dauphin,51.1494,-100.0502,13.99,42,0,3.19,CA,1746364500
527,ardestan,33.3761,52.3694,31.48,18,100,4.65,IR,1746364501
528,vardenis,40.1827,45.7311,11.67,55,100,3.56,AM,1746364502
529,mont-dore,-22.2833,166.5833,24.44,99,100,3.19,NC,1746364504
530,luanda,-8.8368,13.2343,28.0,65,100,7.2,AO,1746363973
531,rengasdengklok,-6.1592,107.2981,30.27,79,99,2.93,ID,1746364506
532,okhotsk,59.3833,143.3,1.04,88,100,4.7,RU,1746364507
533,achacachi,-16.05,-68.6833,6.84,83,100,1.88,BO,1746364508
534,puerto lempira,15.2667,-83.7667,27.08,78,40,0.0,HN,1746364509
535,peterhead,57.5058,-1.7981,9.23,62,97,9.49,GB,1746364510
536,novyy urengoy,66.0833,76.6333,-2.09,90,6,5.49,RU,1746364512
537,datong,40.0936,113.2914,9.23,70,100,3.26,CN,1746364513
538,watsa,3.0372,29.5355,26.61,55,100,2.73,CD,1746364514
539,chui,-33.6971,-53.4616,19.91,72,0,2.79,UY,1746364516
540,fort st. john,56.2499,-120.8529,1.41,63,2,2.02,CA,1746364517
541,carbonear,47.7332,-53.2148,7.91,98,100,3.23,CA,1746364518
542,shakawe,-18.3667,21.85,29.2,28,0,2.12,BW,1746364519
543,martapura,-3.4167,114.85,25.85,87,100,0.94,ID,1746364520
544,dawei,14.0833,98.2,27.68,78,100,1.45,MM,1746364521
545,beichengqu,40.4394,113.1536,7.98,69,100,3.91,CN,1746364522
546,kolonia,50.9333,6.95,14.41,62,40,3.09,DE,1746364474
547,ayas,40.0193,32.3322,17.77,36,7,3.74,TR,1746364524
548,vanino,49.0869,140.2543,3.79,87,91,0.8,RU,1746364525
549,mount isa,-20.7333,139.5,21.87,64,20,2.57,AU,1746364527
550,urangan,-25.3,152.9,21.01,67,0,7.35,AU,1746364528
551,zara,44.1197,15.2422,25.34,31,0,4.12,HR,1746364529
552,greymouth,-42.4667,171.2,10.42,86,83,2.63,NZ,1746364530
553,olonets,60.9847,32.9698,6.5,76,69,3.19,RU,1746364531
554,aripuana,-9.1667,-60.6333,26.87,83,92,0.69,BR,1746364532
555,xining,36.6167,101.7667,7.53,60,97,3.45,CN,1746364533
556,rio preto da eva,-2.6994,-59.6997,29.97,76,17,1.47,BR,1746364308
557,jidong,45.2167,131.0833,6.91,72,19,5.09,CN,1746364537
558,nantucket,41.2835,-70.0995,15.64,89,100,8.03,US,1746364538
559,kirakira,-10.4544,161.9205,26.67,86,19,5.03,SB,1746364539
560,baijiantan,45.6333,85.1833,26.07,16,63,2.45,CN,1746364540
561,kolonia town,6.964,158.206,27.78,84,100,7.72,FM,1746364541
562,jiuquan,39.7432,98.5174,17.22,9,1,14.66,CN,1746364542
563,jodhpur,26.2867,73.03,23.81,62,100,9.72,IN,1746364545
564,berriane,32.8265,3.7669,33.34,18,20,7.91,DZ,1746364547
565,kashary,49.04,41.0056,21.55,30,0,4.99,RU,1746364548
566,enshi,30.3,109.4833,17.64,98,100,0.05,CN,1746364549
567,kandi,11.1342,2.9386,40.65,20,55,0.99,BJ,1746364550
568,malanje,-9.5402,16.341,23.04,80,100,1.58,AO,1746364551
569,sumbawa besar,-8.5,117.4333,23.75,97,3,1.68,ID,1746364552
570,robertsport,6.7533,-11.3686,29.0,69,47,4.58,LR,1746364553
571,kharagpur,22.3333,87.3333,33.9,35,62,3.13,IN,1746364554
572,mersa matruh,31.3525,27.2453,20.87,54,0,6.16,EG,1746364556
573,mersing,2.4312,103.8405,26.8,84,100,2.36,MY,1746364557
574,bembereke,10.2283,2.6634,40.18,20,95,1.31,BJ,1746364559
575,oyotun,-6.8519,-79.3036,23.65,76,100,1.59,PE,1746364560
576,sao mateus,-18.7161,-39.8589,27.14,50,6,2.89,BR,1746364561
577,khovd,48.0056,91.6419,5.59,21,5,6.49,MN,1746364562
